[
  {"slug":"ponsonby","name":"Ponsonby","blurb":"Ponsonby is one of Auckland's most sought-after inner suburbs. Older villas and character homes dominate, meaning most tradie jobs involve heritage-sensitive work — renovations, rewiring, repiling, and plumbing upgrades in pre-1940s homes.","demand":"High demand for builders and electricians due to the age and character of the housing stock.","lat":-36.8558,"lng":174.7384},
  {"slug":"mt-eden","name":"Mount Eden","blurb":"Mount Eden and its neighbouring suburbs (Sandringham, Balmoral, Kingsland) are packed with bungalows and villas under constant renovation. It's one of Auckland's highest-volume renovation corridors.","demand":"Strong demand for bathroom and kitchen renovators, plumbers, and painters.","lat":-36.8779,"lng":174.7571},
  {"slug":"remuera","name":"Remuera","blurb":"Remuera's premium housing stock drives consistent demand for high-spec tradie work. Homeowners here expect detailed quoting, tidy worksites, and quality finishes on new builds, extensions and full renovations.","demand":"Premium builds and full renovations. High per-job value, discerning clients.","lat":-36.8800,"lng":174.7923},
  {"slug":"takapuna","name":"Takapuna","blurb":"Takapuna on the North Shore is a mix of 1960s–1980s homes and modern apartments. Bathroom and kitchen upgrades dominate, plus roofing work on ageing homes.","demand":"High demand for plumbers, bathroom renovators, roofers and painters.","lat":-36.7884,"lng":174.7750},
  {"slug":"henderson","name":"Henderson","blurb":"Henderson and West Auckland have seen significant development over the past decade. New builds, extensions and weathertight remediation work are common across Henderson, Te Atatu and New Lynn.","demand":"Strong demand for builders, waterproofers and landscapers across the western corridor.","lat":-36.8751,"lng":174.6363},
  {"slug":"newmarket","name":"Newmarket","blurb":"Newmarket's mix of apartments and renovated character homes creates consistent demand for plumbing, electrical and kitchen work. Proximity to Epsom and Grafton extends the service zone.","demand":"Plumbing, electrical and kitchen renovation work from apartment and villa owners.","lat":-36.8693,"lng":174.7773},
  {"slug":"parnell","name":"Parnell","blurb":"Parnell is Auckland's oldest suburb and home to some of its finest villa and heritage properties. Tradie work here is often high-spec restoration — joinery, plasterwork, period-appropriate detailing.","demand":"Specialist builders, painters and heritage restoration tradespeople.","lat":-36.8596,"lng":174.7800},
  {"slug":"albany","name":"Albany","blurb":"Albany on the upper North Shore is a fast-growing hub of new builds and large-lot homes. New construction, landscaping, and fit-out work dominate the area.","demand":"New build specialists, landscapers, and fit-out tradespeople.","lat":-36.7328,"lng":174.7005},
  {"slug":"botany","name":"Botany","blurb":"Botany and East Auckland have a high concentration of family homes built in the 1990s–2010s, many now due for their first major renovation cycle — kitchens, bathrooms, decks, and fencing.","demand":"Mid-cycle renovations: kitchens, bathrooms, decking, and tiling are the main jobs.","lat":-36.9236,"lng":174.9100},
  {"slug":"onehunga","name":"Onehunga","blurb":"Onehunga is one of Auckland's most rapidly gentrifying suburbs. Older state homes and bungalows are being renovated or extended, with strong demand across most trades.","demand":"Builders, painters, plumbers and electricians for rapid renovation volume.","lat":-36.9253,"lng":174.7836},
  {"slug":"papakura","name":"Papakura","blurb":"Papakura in South Auckland serves as a hub for tradies working across Manukau, Pukekohe and Karaka. Lifestyle blocks, new subdivisions and older homes create varied demand.","demand":"Builders for new subdivisions, landscapers for lifestyle blocks, roofing and painting.","lat":-37.0640,"lng":174.9438},
  {"slug":"manukau","name":"Manukau","blurb":"Manukau is South Auckland's commercial and residential centre. High-density housing, community builds and large-lot homes create consistent tradie demand across all trades.","demand":"High volume across all trades — builders, plumbers, electricians and painters.","lat":-36.9941,"lng":174.8796}
]
